{
    "locations": [
      {
        "name": "Central Park",
        "latitude": 40.785091,
        "longitude": -73.968285,
        "address": "Central Park, New York, NY 10022",
        "description": "Iconic urban park in the heart of Manhattan, offering a variety of fitness activities and beautiful scenery."
      },
      {
        "name": "Santa Monica Beach",
        "latitude": 34.0095,
        "longitude": -118.4978,
        "address": "Santa Monica Beach, Santa Monica, CA 90401",
        "description": "Scenic beachfront location for outdoor workouts, including beach volleyball, cycling, and jogging."
      },
      {
        "name": "Venice Beach",
        "latitude": 33.9887,
        "longitude": -118.4731,
        "address": "Venice Beach, Los Angeles, CA 90291",
        "description": "Home to the famous Muscle Beach Gym, known for bodybuilding and strength training."
      },
      {
        "name": "Boulder, Colorado",
        "latitude": 40.0150,
        "longitude": -105.2705,
        "address": "Boulder, CO 80302",
        "description": "A fitness-oriented city with access to hiking, biking, and a strong outdoor culture in the Rocky Mountains."
      },
      {
        "name": "Lakefront Trail",
        "latitude": 41.9106,
        "longitude": -87.6263,
        "address": "Lakefront Trail, Chicago, IL 60611",
        "description": "18-mile trail along Lake Michigan, perfect for running, cycling, and walking with scenic city views."
      },
      {
        "name": "Runyon Canyon Park",
        "latitude": 34.1111,
        "longitude": -118.3484,
        "address": "Runyon Canyon Park, Los Angeles, CA 90046",
        "description": "A popular spot for hiking and trail running with excellent views of Los Angeles and the Hollywood Sign."
      },
      {
        "name": "Golden Gate Park",
        "latitude": 37.7694,
        "longitude": -122.4862,
        "address": "Golden Gate Park, San Francisco, CA 94122",
        "description": "Urban park providing opportunities for jogging, rollerblading, and practicing yoga amidst nature."
      },
      {
        "name": "Red Rock Canyon",
        "latitude": 36.1342,
        "longitude": -115.4280,
        "address": "Red Rock Canyon, Las Vegas, NV 89161",
        "description": "A stunning desert location with hiking, rock climbing, and trail running opportunities."
      },
      {
        "name": "Mount Hood",
        "latitude": 45.3731,
        "longitude": -121.6952,
        "address": "Mount Hood, OR 97041",
        "description": "Ideal for hiking, skiing, snowboarding, and various outdoor activities in the Pacific Northwest."
      },
      {
        "name": "Great Smoky Mountains National Park",
        "latitude": 35.6554,
        "longitude": -83.5080,
        "address": "Great Smoky Mountains National Park, Gatlinburg, TN 37738",
        "description": "The most visited national park in the U.S., offering a wide range of hiking trails and natural beauty."
      }
    ]
  }
  